{
"cvs": [
  {"brand_id":"se_가양9단지점_37.55857186122751_126.86373814672443","brand":"SEVEN_ELEVEN","servicesProvideds":[],"name":"가양9단지점","address":"서울특별시 강서구 허준로 234, 상가동 107호(가양동, 가양9단지아파트)","telno":"","latitude":37.55857186122751,"longitude":126.86373814672443},{"brand_id":"se_가양타워점_37.556988148_126.85933171","brand":"SEVEN_ELEVEN","servicesProvideds":["CAFE","ALL_DAY"],"name":"가양타워점","address":"서울특별시 강서구 화곡로68길 102 1층 104호(등촌동, 서울시니어스가양타워)","telno":"","latitude":37.556988148,"longitude":126.85933171},{"brand_id":"se_가양프라자점_37.5612915907155_126.860254088709","brand":"SEVEN_ELEVEN","servicesProvideds":["ATM","ALL_DAY"],"name":"가양프라자점","address":"서울특별시 강서구 허준로 198 106호(가양동)","telno":"","latitude":37.5612915907155,"longitude":126.860254088709},{"brand_id":"se_강서공항대로점_37.552369641_126.86394862","brand":"SEVEN_ELEVEN","servicesProvideds":["CAFE","DELIVERY","ATM","ALL_DAY"],"name":"강서공항대로점","address":"서울특별시 강서구 공항대로59길 16 (등촌동)","telno":"","latitude":37.552369641,"longitude":126.86394862},{"brand_id":"se_강서공항점_37.558517118_126.81092492","brand":"SEVEN_ELEVEN","servicesProvideds":["CAFE","ALL_DAY"],"name":"강서공항점","address":"서울특별시 강서구 송정로4길 1-1, 1층(공항동)","telno":"","latitude":37.558517118,"longitude":126.81092492},{"brand_id":"se_강서공항중앙점_37.5561235575_126.8123759743","brand":"SEVEN_ELEVEN","servicesProvideds":["CAFE","ALL_DAY"],"name":"강서공항중앙점","address":"서울특별시 강서구 공항동 1층 (송정로10)","telno":"","latitude":37.5561235575,"longitude":126.8123759743},{"brand_id":"se_강서내발산길점_37.549401421_126.83409226","brand":"SEVEN_ELEVEN","servicesProvideds":["ALL_DAY"],"name":"강서내발산길점","address":"서울특별시 강서구 강서로45라길 35 신약국","telno":"","latitude":37.549401421,"longitude":126.83409226},{"brand_id":"se_강서등마루점_37.55548937690286_126.85974195038922","brand":"SEVEN_ELEVEN","servicesProvideds":[],"name":"강서등마루점","address":"서울특별시 강서구 화곡로66길 122 1층","telno":"","latitude":37.55548937690286,"longitude":126.85974195038922},{"brand_id":"se_강서등촌로얄점_37.560970126_126.84683109","brand":"SEVEN_ELEVEN","servicesProvideds":[],"name":"강서등촌로얄점","address":"서울특별시 강서구 공항대로41길 76 104호(등촌동)","telno":"","latitude":37.560970126,"longitude":126.84683109},{"brand_id":"se_강서등촌점_37.55992257_126.84553634","brand":"SEVEN_ELEVEN","servicesProvideds":["CAFE","ALL_DAY"],"name":"강서등촌점","address":"서울특별시 강서구 공항대로41길 43(등촌동)","telno":"","latitude":37.55992257,"longitude":126.84553634},{"brand_id":"se_강서마곡점_37.568826417_126.82141227","brand":"SEVEN_ELEVEN","servicesProvideds":[],"name":"강서마곡점","address":"서울특별시 강서구 마곡서1로 146 상가동 1층 103호(마곡동, 마곡엠밸리2단지)","telno":"","latitude":37.568826417,"longitude":126.82141227},{"brand_id":"se_강서블루나인점_37.557116552_126.86434742","brand":"SEVEN_ELEVEN","servicesProvideds":["FRIED","CAFE","ATM","ALL_DAY"],"name":"강서블루나인점","address":"서울 강서구 양천로 583 A-106","telno":"","latitude":37.557116552,"longitude":126.86434742},{"brand_id":"se_강서스토리점_37.573135419_126.81816446","brand":"SEVEN_ELEVEN","servicesProvideds":["CAFE","ATM","ALL_DAY"],"name":"강서스토리점","address":"서울 강서구 방화동 양천로 128 한림리첸빌 101(168-38)","telno":"","latitude":37.573135419,"longitude":126.81816446},{"brand_id":"se_강서신호점_35.087193279_128.88009177","brand":"SEVEN_ELEVEN","servicesProvideds":["CAFE","ATM"],"name":"강서신호점","address":"부산광역시 강서구 신호산단3로 66 삼성빌딩 제1층 103,104호","telno":"","latitude":35.087193279,"longitude":128.88009177},{"brand_id":"se_강서아이파크점_37.554855495_126.85125068","brand":"SEVEN_ELEVEN","servicesProvideds":["CAFE","ATM","ALL_DAY"],"name":"강서아이파크점","address":"서울특별시 강서구 화곡로 347그랜드아이파크 제1층 제118호(화곡동, 그랜드아이파크)","telno":"","latitude":37.554855495,"longitude":126.85125068},{"brand_id":"se_강서염창점_37.550495739_126.87384271","brand":"SEVEN_ELEVEN","servicesProvideds":["FRIED","CAFE"],"name":"강서염창점","address":"서울특별시 강서구 양천로73가길 28 1층 2,3호","telno":"","latitude":37.550495739,"longitude":126.87384271},{"brand_id":"se_강서중앙점_37.554154252_126.85247433","brand":"SEVEN_ELEVEN","servicesProvideds":["CAFE","ALL_DAY"],"name":"강서중앙점","address":"서울특별시 강서구 공항대로46길 35 (화곡동)","telno":"","latitude":37.554154252,"longitude":126.85247433},{"brand_id":"se_강서하이웨이주유소점_37.55453934220348_126.85494976946505","brand":"SEVEN_ELEVEN","servicesProvideds":["CAFE","ALL_DAY"],"name":"강서하이웨이주유소점","address":"서울특별시 강서구 공항대로 432 1층(화곡동)","telno":"","latitude":37.55453934220348,"longitude":126.85494976946505},{"brand_id":"se_강서화곡대로점_37.539174732_126.84036978","brand":"SEVEN_ELEVEN","servicesProvideds":[],"name":"강서화곡대로점","address":"서울특별시 강서구 강서로29길 27 102호(화곡동)","telno":"","latitude":37.539174732,"longitude":126.84036978},{"brand_id":"se_강서화곡로점_37.550542372_126.84908194","brand":"SEVEN_ELEVEN","servicesProvideds":["CAFE","DELIVERY","ALL_DAY"],"name":"강서화곡로점","address":"서울특별시 강서구 화곡로 296 (화곡동, 강서아이파크(I PARK))","telno":"","latitude":37.550542372,"longitude":126.84908194},{"brand_id":"se_강서화곡삼화점_37.532066538_126.83955224","brand":"SEVEN_ELEVEN","servicesProvideds":["CAFE","ALL_DAY"],"name":"강서화곡삼화점","address":"서울특별시 강서구 강서로15길 116 (화곡동)","telno":"","latitude":37.532066538,"longitude":126.83955224},{"brand_id":"se_강서화곡신정점_37.535540183_126.85882892","brand":"SEVEN_ELEVEN","servicesProvideds":["ALL_DAY"],"name":"강서화곡신정점","address":"서울특별시 강서구 등촌로13다길 32-18 1층(화곡동)","telno":"","latitude":37.535540183,"longitude":126.85882892},{"brand_id":"se_강서화곡예스점_37.545988472_126.84747974","brand":"SEVEN_ELEVEN","servicesProvideds":["CAFE","DELIVERY","ALL_DAY"],"name":"강서화곡예스점","address":"서울특별시 강서구 화곡로42길 35 (화곡동)","telno":"","latitude":37.545988472,"longitude":126.84747974},{"brand_id":"se_강서화곡점_37.53062537204442_126.8452799942945","brand":"SEVEN_ELEVEN","servicesProvideds":["CAFE","ALL_DAY"],"name":"강서화곡점","address":"서울특별시 강서구 곰달래로 111 (화곡동, 1층)","telno":"","latitude":37.53062537204442,"longitude":126.8452799942945},{"brand_id":"se_강서화곡중앙점_37.540224991_126.83619909","brand":"SEVEN_ELEVEN","servicesProvideds":["CAFE","DELIVERY","ATM","ALL_DAY"],"name":"강서화곡중앙점","address":"서울특별시 강서구 화곡로 130 동원빌딩 1층","telno":"","latitude":37.540224991,"longitude":126.83619909},{"brand_id":"se_강서화곡진주점_37.530340852_126.85392412","brand":"SEVEN_ELEVEN","servicesProvideds":["CAFE","ALL_DAY"],"name":"강서화곡진주점","address":"서울특별시 강서구 곰달래로36길 17 (화곡동)","telno":"","latitude":37.530340852,"longitude":126.85392412},{"brand_id":"se_강서화곡한솔점_37.548232439_126.84925861","brand":"SEVEN_ELEVEN","servicesProvideds":["CAFE","ALL_DAY"],"name":"강서화곡한솔점","address":"서울특별시 강서구 까치산로17길 10","telno":"","latitude":37.548232439,"longitude":126.84925861},{"brand_id":"se_개화산역점_37.572459283_126.80768388","brand":"SEVEN_ELEVEN","servicesProvideds":["CAFE","ATM","ALL_DAY"],"name":"개화산역점","address":"서울 강서구 방화동 534-9","telno":"","latitude":37.572459283,"longitude":126.80768388},{"brand_id":"se_개화중앙점_37.5790189729_126.800341938","brand":"SEVEN_ELEVEN","servicesProvideds":["CAFE","ALL_DAY"],"name":"개화중앙점","address":"서울특별시 강서구 개화동로9길 7 1층 101호(개화동)","telno":"","latitude":37.5790189729,"longitude":126.800341938},{"brand_id":"se_공항시장역점_37.565525397_126.81226547","brand":"SEVEN_ELEVEN","servicesProvideds":["CAFE","ATM","ALL_DAY"],"name":"공항시장역점","address":"서울특별시 강서구 방화동로 58-1 (방화동)","telno":"","latitude":37.565525397,"longitude":126.81226547},{"brand_id":"se_공항시장점_37.564581156_126.81001315","brand":"SEVEN_ELEVEN","servicesProvideds":["ATM","ALL_DAY"],"name":"공항시장점","address":"서울특별시 강서구 방화동로5길 24","telno":"","latitude":37.564581156,"longitude":126.81001315},{"brand_id":"se_공항점_37.555055786_126.81682769","brand":"SEVEN_ELEVEN","servicesProvideds":["CAFE","ATM","ALL_DAY"],"name":"공항점","address":"서울특별시 강서구 방화대로6나길 1(공항동)","telno":"","latitude":37.555055786,"longitude":126.81682769},{"brand_id":"se_김포공항국내선1층점_37.5587841523495_126.803355336745","brand":"SEVEN_ELEVEN","servicesProvideds":[],"name":"김포공항국내선1층점","address":"서울특별시 강서구 하늘길 112 김포국제공항 국내선터미널 1층","telno":"","latitude":37.5587841523495,"longitude":126.803355336745},{"brand_id":"se_내발산점_37.551687845_126.83259791","brand":"SEVEN_ELEVEN","servicesProvideds":["CAFE","ALL_DAY"],"name":"내발산점","address":"서울특별시 강서구 강서로47라길 31 1층","telno":"","latitude":37.551687845,"longitude":126.83259791},{"brand_id":"se_등촌2호점_37.561940887_126.8401854","brand":"SEVEN_ELEVEN","servicesProvideds":["CAFE","DELIVERY","ATM","ALL_DAY"],"name":"등촌2호점","address":"서울특별시 강서구 강서로56가길 53(등촌동)","telno":"","latitude":37.561940887,"longitude":126.8401854},{"brand_id":"se_등촌5호점_37.566220656_126.84155264","brand":"SEVEN_ELEVEN","servicesProvideds":["FRIED","LOTTERY","CAFE","DELIVERY","ATM","ALL_DAY"],"name":"등촌5호점","address":"서울특별시 강서구 강서로68길 12(등촌동)","telno":"","latitude":37.566220656,"longitude":126.84155264},{"brand_id":"se_등촌능안점_37.546750197_126.86016118","brand":"SEVEN_ELEVEN","servicesProvideds":["ALL_DAY"],"name":"등촌능안점","address":"서울특별시 강서구 등촌로39길 52 1층","telno":"","latitude":37.546750197,"longitude":126.86016118},{"brand_id":"se_등촌두보점_37.550917097_126.85771805","brand":"SEVEN_ELEVEN","servicesProvideds":["CAFE","ATM"],"name":"등촌두보점","address":"서울특별시 강서구 공항대로58나길 40-44(등촌동)","telno":"","latitude":37.550917097,"longitude":126.85771805},{"brand_id":"se_등촌샤르망점_37.559249291_126.85753018","brand":"SEVEN_ELEVEN","servicesProvideds":["CAFE","ALL_DAY"],"name":"등촌샤르망점","address":"서울특별시 강서구 공항대로45길 101 (등촌동, 강변샤르망2차오피스텔)","telno":"","latitude":37.559249291,"longitude":126.85753018},{"brand_id":"se_등촌스타점_37.55924192076713_126.85444266627593","brand":"SEVEN_ELEVEN","servicesProvideds":["ALL_DAY"],"name":"등촌스타점","address":"서울특별시 강서구 화곡로 404 1층(등촌동)","telno":"","latitude":37.55924192076713,"longitude":126.85444266627593},{"brand_id":"se_등촌역점_37.550285974_126.86346353","brand":"SEVEN_ELEVEN","servicesProvideds":["ALL_DAY"],"name":"등촌역점","address":"서울특별시 강서구 등촌로 229-1 (등촌동)","telno":"","latitude":37.550285974,"longitude":126.86346353},{"brand_id":"se_등촌영일점_37.5477076579694_126.862436650888","brand":"SEVEN_ELEVEN","servicesProvideds":[],"name":"등촌영일점","address":"서울특별시 강서구 등촌로51가길 27 1층","telno":"","latitude":37.5477076579694,"longitude":126.862436650888},{"brand_id":"se_등촌현대점_37.551697351_126.86539386","brand":"SEVEN_ELEVEN","servicesProvideds":["CAFE","ALL_DAY"],"name":"등촌현대점","address":"서울특별시 강서구 공항대로61길 13","telno":"","latitude":37.551697351,"longitude":126.86539386},{"brand_id":"se_등촌Awish점_37.56285940077529_126.85081825279435","brand":"SEVEN_ELEVEN","servicesProvideds":["CAFE","DELIVERY","ALL_DAY"],"name":"등촌Awish점","address":"서울특별시 강서구 양천로 452 제1층 제106호(등촌동, 어위쉬예다인)","telno":"","latitude":37.56285940077529,"longitude":126.85081825279435},{"brand_id":"se_롯데스카이파크점_37.565030924_126.80297174","brand":"SEVEN_ELEVEN","servicesProvideds":["CAFE","ATM"],"name":"롯데스카이파크점","address":"서울 강서구 방화동 886외 6필지 롯데몰스카이파크점 B1층","telno":"","latitude":37.565030924,"longitude":126.80297174},{"brand_id":"se_마곡15단지점_37.557316854_126.82730226","brand":"SEVEN_ELEVEN","servicesProvideds":["CAFE","ALL_DAY"],"name":"마곡15단지점","address":"서울특별시 강서구 마곡중앙로 36 마곡엠밸리 15단지","telno":"","latitude":37.557316854,"longitude":126.82730226},{"brand_id":"se_마곡6단지점_37.56575310518382_126.8196221692863","brand":"SEVEN_ELEVEN","servicesProvideds":["CAFE"],"name":"마곡6단지점","address":"서울특별시 강서구 마곡서1로 100 601동 상가1층 107,108호(마곡동)","telno":"","latitude":37.56575310518382,"longitude":126.8196221692863},{"brand_id":"se_마곡대방디엠점_37.568675601714716_126.83935602309693","brand":"SEVEN_ELEVEN","servicesProvideds":[],"name":"마곡대방디엠점","address":"서울특별시 강서구 마곡동 776 대방디엠시티오피스텔2차 상가 127호","telno":"","latitude":37.568675601714716,"longitude":126.83935602309693},{"brand_id":"se_마곡로뎀점_37.559098234203276_126.82799533136951","brand":"SEVEN_ELEVEN","servicesProvideds":[],"name":"마곡로뎀점","address":"서울특별시 강서구 공항대로 186 1층 121호(마곡동, 로뎀타워)","telno":"","latitude":37.559098234203276,"longitude":126.82799533136951},{"brand_id":"se_마곡롯데연구소점_37.571409047_126.82773157","brand":"SEVEN_ELEVEN","servicesProvideds":["ATM"],"name":"마곡롯데연구소점","address":"서울특별시 강서구 마곡중앙로 201 1층(마곡동, 롯데중앙연구소)","telno":"","latitude":37.571409047,"longitude":126.82773157},{"brand_id":"se_마곡르보아점_37.567173842_126.81777599","brand":"SEVEN_ELEVEN","servicesProvideds":["DELIVERY","ALL_DAY"],"name":"마곡르보아점","address":"서울특별시 강서구 마곡중앙5로 87","telno":"","latitude":37.567173842,"longitude":126.81777599},{"brand_id":"se_마곡에스비점_37.560120307_126.83827879","brand":"SEVEN_ELEVEN","servicesProvideds":["ALL_DAY"],"name":"마곡에스비점","address":"서울특별시 강서구 강서로 385 124호(마곡동, 우성에스비타워)","telno":"","latitude":37.560120307,"longitude":126.83827879},{"brand_id":"se_마곡열린점_37.5584801960397_126.834327579685","brand":"SEVEN_ELEVEN","servicesProvideds":[],"name":"마곡열린점","address":"서울특별시 강서구 공항대로 242, 115호","telno":"","latitude":37.5584801960397,"longitude":126.834327579685},{"brand_id":"se_마곡이너매스점_37.560835635621_126.829618546018","brand":"SEVEN_ELEVEN","servicesProvideds":["CAFE"],"name":"마곡이너매스점","address":"서울특별시 강서구 마곡중앙6로 21 113호(마곡동, 이너매스마곡)","telno":"","latitude":37.560835635621,"longitude":126.829618546018},{"brand_id":"se_마곡행복점_37.5579650314969_126.830661784149","brand":"SEVEN_ELEVEN","servicesProvideds":[],"name":"마곡행복점","address":"서울특별시 강서구 마곡중앙2로 35","telno":"","latitude":37.5579650314969,"longitude":126.830661784149},{"brand_id":"se_마곡호서대기숙사점_37.561290103_126.83866563","brand":"SEVEN_ELEVEN","servicesProvideds":[],"name":"마곡호서대기숙사점","address":"서울특별시 강서구 강서로 399 1동 107호(마곡동, 마곡하이마루)","telno":"","latitude":37.561290103,"longitude":126.83866563},{"brand_id":"se_마곡홈앤쇼핑점_37.559199346_126.82325064","brand":"SEVEN_ELEVEN","servicesProvideds":["CAFE","ALL_DAY"],"name":"마곡홈앤쇼핑점","address":"서울특별시 강서구 공항대로 140 상가 1206동 103호 (마곡동, 마곡엠벨리12단지)","telno":"","latitude":37.559199346,"longitude":126.82325064},{"brand_id":"se_마곡W타워점_37.5584947155389_126.825213109876","brand":"SEVEN_ELEVEN","servicesProvideds":[],"name":"마곡W타워점","address":"서울특별시 강서구 마곡중앙1로 14 110호(마곡동, 엠밸리더블유타워4)","telno":"","latitude":37.5584947155389,"longitude":126.825213109876},{"brand_id":"se_발산신화점_37.557692953427384_126.83839270339953","brand":"SEVEN_ELEVEN","servicesProvideds":["LOTTERY","CAFE","ALL_DAY"],"name":"발산신화점","address":"서울특별시 강서구 강서로 360 1층 113,114호(내발산동, 솔레드림)","telno":"","latitude":37.557692953427384,"longitude":126.83839270339953},{"brand_id":"se_발산이대병원점_37.556762703561404_126.83742932767895","brand":"SEVEN_ELEVEN","servicesProvideds":[],"name":"발산이대병원점","address":"서울특별시 강서구 강서로 349 12호(내발산동, 외1필지)","telno":"","latitude":37.556762703561404,"longitude":126.83742932767895},{"brand_id":"se_발산점_37.552649608_126.83480029","brand":"SEVEN_ELEVEN","servicesProvideds":["CAFE","ATM","ALL_DAY"],"name":"발산점","address":"서울특별시 강서구 강서로47길 25(내발산동)","telno":"","latitude":37.552649608,"longitude":126.83480029},{"brand_id":"se_발산제일점_37.554553265_126.84059049","brand":"SEVEN_ELEVEN","servicesProvideds":["LOTTERY","ALL_DAY"],"name":"발산제일점","address":"서울 강서구 우장산로 31","telno":"","latitude":37.554553265,"longitude":126.84059049},{"brand_id":"se_발산W타워점_37.558668166939384_126.83217485546406","brand":"SEVEN_ELEVEN","servicesProvideds":["CAFE"],"name":"발산W타워점","address":"서울특별시 강서구 공항대로 222 1층 109호(마곡동, 발산W타워)","telno":"","latitude":37.558668166939384,"longitude":126.83217485546406},{"brand_id":"se_방화삼익점_37.577100478_126.81397978","brand":"SEVEN_ELEVEN","servicesProvideds":["LOTTERY","ALL_DAY"],"name":"방화삼익점","address":"서울특별시 강서구 방화대로47가길 22 방화4단지아파트105호,106호","telno":"","latitude":37.577100478,"longitude":126.81397978},{"brand_id":"se_방화새싹공원점_37.569455279_126.80873752","brand":"SEVEN_ELEVEN","servicesProvideds":["CAFE","ATM","ALL_DAY"],"name":"방화새싹공원점","address":"서울특별시 강서구 양천로14길 86 1층","telno":"","latitude":37.569455279,"longitude":126.80873752},{"brand_id":"se_방화역점_37.577444022_126.81243932","brand":"SEVEN_ELEVEN","servicesProvideds":["LOTTERY","CAFE","ATM"],"name":"방화역점","address":"서울특별시 강서구 방화동 금낭화로135 금강프라자 1층 131호","telno":"","latitude":37.577444022,"longitude":126.81243932},{"brand_id":"se_방화점_37.578191412_126.81330235","brand":"SEVEN_ELEVEN","servicesProvideds":["CAFE","DELIVERY","ATM","ALL_DAY"],"name":"방화점","address":"서울특별시 강서구 금낭화로 146","telno":"","latitude":37.578191412,"longitude":126.81330235},{"brand_id":"se_방화하늘점_37.570800294_126.81143269","brand":"SEVEN_ELEVEN","servicesProvideds":["CAFE","ALL_DAY"],"name":"방화하늘점","address":"서울특별시 강서구 금낭화로 61 (방화동)","telno":"","latitude":37.570800294,"longitude":126.81143269},{"brand_id":"se_부산가덕도점_35.030515036558_128.812366693852","brand":"SEVEN_ELEVEN","servicesProvideds":[],"name":"부산가덕도점","address":"부산광역시 강서구 가덕해안로 748","telno":"","latitude":35.030515036558,"longitude":128.812366693852},{"brand_id":"se_부산갑을녹산병원점_35.090775084_128.85302601","brand":"SEVEN_ELEVEN","servicesProvideds":["ALL_DAY"],"name":"부산갑을녹산병원점","address":"부산시 강서구 녹산산단 321로 24-4","telno":"","latitude":35.090775084,"longitude":128.85302601},{"brand_id":"se_부산강서강동점_35.21778589330931_128.93732567563762","brand":"SEVEN_ELEVEN","servicesProvideds":["FRIED","CAFE","ALL_DAY"],"name":"부산강서강동점","address":"부산광역시 강서구 낙동북로 74(강동동)","telno":"","latitude":35.21778589330931,"longitude":128.93732567563762},{"brand_id":"se_부산강서구랑점_35.12775197_128.8554738","brand":"SEVEN_ELEVEN","servicesProvideds":["ATM","ALL_DAY"],"name":"부산강서구랑점","address":"부산광역시 강서구 미음산단로8번길 6","telno":"","latitude":35.12775197,"longitude":128.8554738},{"brand_id":"se_부산강서명지점_35.108663439_128.93099256","brand":"SEVEN_ELEVEN","servicesProvideds":["CAFE","ATM","ALL_DAY"],"name":"부산강서명지점","address":"부산광역시 강서구 명지동 3211-7","telno":"","latitude":35.108663439,"longitude":128.93099256},{"brand_id":"se_부산강서범방점_35.15963517948294_128.8858969753992","brand":"SEVEN_ELEVEN","servicesProvideds":["CAFE","ALL_DAY"],"name":"부산강서범방점","address":"부산광역시 강서구 가락대로961번길 94 (범방동)","telno":"","latitude":35.15963517948294,"longitude":128.8858969753992},{"brand_id":"se_부산강서승임점_35.13598731874677_128.88546538689354","brand":"SEVEN_ELEVEN","servicesProvideds":[],"name":"부산강서승임점","address":"부산광역시 강서구 생곡산단1로5번길 3","telno":"","latitude":35.13598731874677,"longitude":128.88546538689354},{"brand_id":"se_부산강서화전점_35.110842426_128.87859509","brand":"SEVEN_ELEVEN","servicesProvideds":["CAFE","ATM","ALL_DAY"],"name":"부산강서화전점","address":"부산시 강서구 화전산단4로 6번길 6","telno":"","latitude":35.110842426,"longitude":128.87859509},{"brand_id":"se_부산대저공단점_35.219950294_128.99075657","brand":"SEVEN_ELEVEN","servicesProvideds":["CAFE"],"name":"부산대저공단점","address":"부산광역시 강서구 공항로 1373(대저1동)","telno":"","latitude":35.219950294,"longitude":128.99075657},{"brand_id":"se_부산대저중앙점_35.2208389383472_128.984292711004","brand":"SEVEN_ELEVEN","servicesProvideds":[],"name":"부산대저중앙점","address":"부산광역시 강서구 대저중앙로 344","telno":"","latitude":35.2208389383472,"longitude":128.984292711004},{"brand_id":"se_부산대저평강점_35.212869829_128.94716175","brand":"SEVEN_ELEVEN","servicesProvideds":["CAFE"],"name":"부산대저평강점","address":"부산광역시 강서구 평강로 316","telno":"","latitude":35.212869829,"longitude":128.94716175},{"brand_id":"se_부산명지그린점_35.0855332768024_128.90948361997","brand":"SEVEN_ELEVEN","servicesProvideds":[],"name":"부산명지그린점","address":"부산광역시 강서구 명지오션시티8로34번길 30","telno":"","latitude":35.0855332768024,"longitude":128.90948361997},{"brand_id":"se_부산명지대주점_35.082257761_128.90299695","brand":"SEVEN_ELEVEN","servicesProvideds":["DELIVERY","ATM","ALL_DAY"],"name":"부산명지대주점","address":"부산광역시 강서구 명지오션시티3로 23 102,103호","telno":"","latitude":35.082257761,"longitude":128.90299695},{"brand_id":"se_부산명지레인보우점_35.093586768375815_128.90075586311823","brand":"SEVEN_ELEVEN","servicesProvideds":[],"name":"부산명지레인보우점","address":"부산광역시 강서구 명지국제8로 19","telno":"","latitude":35.093586768375815,"longitude":128.90075586311823},{"brand_id":"se_부산명지롯데캐슬점_35.082541693_128.9060338","brand":"SEVEN_ELEVEN","servicesProvideds":["CAFE","ALL_DAY"],"name":"부산명지롯데캐슬점","address":"부산시 강서구 명지오션시티 11로 84 명지동 롯데캐슬 아파트","telno":"","latitude":35.082541693,"longitude":128.9060338},{"brand_id":"se_부산명지솔마레점_35.081741656_128.89659562","brand":"SEVEN_ELEVEN","servicesProvideds":["CAFE","ALL_DAY"],"name":"부산명지솔마레점","address":"부산광역시 강서구 명지오션시티12로 10 상가동 101호, 102호(명지동, 엘크루솔마레)","telno":"","latitude":35.081741656,"longitude":128.89659562},{"brand_id":"se_부산명지웨스트점_35.088550589_128.90215201","brand":"SEVEN_ELEVEN","servicesProvideds":["ATM","ALL_DAY"],"name":"부산명지웨스트점","address":"부산광역시 강서구 명지오션시티9로 49","telno":"","latitude":35.088550589,"longitude":128.90215201},{"brand_id":"se_부산명지코아점_35.098521697714474_128.91860368470296","brand":"SEVEN_ELEVEN","servicesProvideds":["CAFE"],"name":"부산명지코아점","address":"부산광역시 강서구 명지국제8로 235","telno":"","latitude":35.098521697714474,"longitude":128.91860368470296},{"brand_id":"se_부산명지포스코점_35.0975144029619_128.905334479142","brand":"SEVEN_ELEVEN","servicesProvideds":[],"name":"부산명지포스코점","address":"부산광역시 강서구 명지국제7로 37","telno":"","latitude":35.0975144029619,"longitude":128.905334479142},{"brand_id":"se_부산미음BNK점_35.137163552_128.85810582","brand":"SEVEN_ELEVEN","servicesProvideds":["CAFE"],"name":"부산미음BNK점","address":"부산광역시 강서구 미음산단로127번길 22 (구랑동)","telno":"","latitude":35.137163552,"longitude":128.85810582},{"brand_id":"se_부산범방원룸점_35.1500205192865_128.880262254916","brand":"SEVEN_ELEVEN","servicesProvideds":[],"name":"부산범방원룸점","address":"부산광역시 강서구 범방3로71번길 14","telno":"","latitude":35.1500205192865,"longitude":128.880262254916},{"brand_id":"se_부산생곡공단점_35.13689973509043_128.8696229093242","brand":"SEVEN_ELEVEN","servicesProvideds":[],"name":"부산생곡공단점","address":"부산광역시 강서구 가락대로 706","telno":"","latitude":35.13689973509043,"longitude":128.8696229093242},{"brand_id":"se_부산신항휴게소점_35.079746217_128.83393326","brand":"SEVEN_ELEVEN","servicesProvideds":[],"name":"부산신항휴게소점","address":"부산광역시 강서구 신항남로 354","telno":"","latitude":35.079746217,"longitude":128.83393326},{"brand_id":"se_부산신호사랑점_35.081151907_128.87890942","brand":"SEVEN_ELEVEN","servicesProvideds":["FRIED","CAFE","ATM","ALL_DAY"],"name":"부산신호사랑점","address":"부산광역시 강서구 신호산단1로 140","telno":"","latitude":35.081151907,"longitude":128.87890942},{"brand_id":"se_부산신호스타점_35.0846699975682_128.880010279141","brand":"SEVEN_ELEVEN","servicesProvideds":[],"name":"부산신호스타점","address":"부산광역시 강서구 신호산단4로64번길 11","telno":"","latitude":35.0846699975682,"longitude":128.880010279141},{"brand_id":"se_부산신호원룸점_35.082549203_128.87969574","brand":"SEVEN_ELEVEN","servicesProvideds":["ATM","ALL_DAY"],"name":"부산신호원룸점","address":"부산광역시 강서구 신호산단4로64번길 36 (신호동)","telno":"","latitude":35.082549203,"longitude":128.87969574},{"brand_id":"se_부산오션시티점_35.079905285_128.90405175","brand":"SEVEN_ELEVEN","servicesProvideds":["CAFE"],"name":"부산오션시티점","address":"부산광역시 강서구 명지오션시티1로 173 107,108호(명지동,명지청산오션타워)","telno":"","latitude":35.079905285,"longitude":128.90405175},{"brand_id":"se_부산지사원룸점_35.149890576_128.8343124","brand":"SEVEN_ELEVEN","servicesProvideds":["FRIED","CAFE","ATM","ALL_DAY"],"name":"부산지사원룸점","address":"부산광역시 강서구 과학산단로334번가길 26 외 1필지 제1호 1층","telno":"","latitude":35.149890576,"longitude":128.8343124},{"brand_id":"se_부산화전원룸점_35.109216225_128.88280414","brand":"SEVEN_ELEVEN","servicesProvideds":["FRIED","CAFE","ATM","ALL_DAY"],"name":"부산화전원룸점","address":"부산광역시 강서구 화전산단5로 118번길 41","telno":"","latitude":35.109216225,"longitude":128.88280414},{"brand_id":"se_서부산유통단지점_35.16713264812343_128.9552495714869","brand":"SEVEN_ELEVEN","servicesProvideds":["CAFE"],"name":"서부산유통단지점","address":"부산광역시 강서구 유통단지1로49번길 6 와이엔제이빌딩 107호(대저2동)","telno":"","latitude":35.16713264812343,"longitude":128.9552495714869},{"brand_id":"se_서울호서대점_37.562704573_126.83992118","brand":"SEVEN_ELEVEN","servicesProvideds":["FRIED","ATM"],"name":"서울호서대점","address":"서울특별시 강서구 강서로 418 동우빌딩","telno":"","latitude":37.562704573,"longitude":126.83992118},{"brand_id":"se_송정로점_37.560144891_126.81016023","brand":"SEVEN_ELEVEN","servicesProvideds":["CAFE","ATM","ALL_DAY"],"name":"송정로점","address":"서울특별시 강서구 송정로 60 (공항동)","telno":"","latitude":37.560144891,"longitude":126.81016023},{"brand_id":"se_신방화역점_37.569182263_126.81610036","brand":"SEVEN_ELEVEN","servicesProvideds":["ALL_DAY"],"name":"신방화역점","address":"서울특별시 강서구 방화대로 319 길성아파트 상가 8, 9호","telno":"","latitude":37.569182263,"longitude":126.81610036},{"brand_id":"se_염창점_37.55137308_126.87195361","brand":"SEVEN_ELEVEN","servicesProvideds":["CAFE","DELIVERY","ATM","ALL_DAY"],"name":"염창점","address":"서울특별시 강서구 양천로 677 1층 101호(염창동, 염창빌딩)","telno":"","latitude":37.55137308,"longitude":126.87195361},{"brand_id":"se_염창중앙점_37.553122917_126.8703934","brand":"SEVEN_ELEVEN","servicesProvideds":["CAFE"],"name":"염창중앙점","address":"서울 강서구 양천로69길 11 (염창동)","telno":"","latitude":37.553122917,"longitude":126.8703934},{"brand_id":"se_화곡3호점_37.537839855_126.8367112","brand":"SEVEN_ELEVEN","servicesProvideds":["CAFE","ATM","ALL_DAY"],"name":"화곡3호점","address":"서울특별시 강서구 화곡로20길 58 (화곡동)","telno":"","latitude":37.537839855,"longitude":126.8367112},{"brand_id":"se_화곡5호점_37.532672207_126.84237489","brand":"SEVEN_ELEVEN","servicesProvideds":["FRIED","LOTTERY","CAFE","ALL_DAY"],"name":"화곡5호점","address":"서울특별시 강서구 강서로 17다길 2","telno":"","latitude":37.532672207,"longitude":126.84237489},{"brand_id":"se_화곡곰달래점_37.53078224_126.85827673","brand":"SEVEN_ELEVEN","servicesProvideds":["ATM","ALL_DAY"],"name":"화곡곰달래점","address":"서울특별시 강서구 곰달래로50길 19 1층(화곡동)","telno":"","latitude":37.53078224,"longitude":126.85827673},{"brand_id":"se_화곡까치산로점_37.542512611_126.84349476","brand":"SEVEN_ELEVEN","servicesProvideds":["CAFE","DELIVERY","ALL_DAY"],"name":"화곡까치산로점","address":"서울특별시 강서구 까치산로 29 (화곡동)","telno":"","latitude":37.542512611,"longitude":126.84349476},{"brand_id":"se_화곡까치점_37.540975953_126.84247508","brand":"SEVEN_ELEVEN","servicesProvideds":["FRIED","CAFE","ALL_DAY"],"name":"화곡까치점","address":"서울특별시 강서구 까치산로2길 3 1층 101호(화곡동, 디아망2)","telno":"","latitude":37.540975953,"longitude":126.84247508},{"brand_id":"se_화곡로점_37.553419853_126.85312764","brand":"SEVEN_ELEVEN","servicesProvideds":["CAFE","ALL_DAY"],"name":"화곡로점","address":"서울특별시 강서구 화곡로60길 33 (화곡동)","telno":"","latitude":37.553419853,"longitude":126.85312764},{"brand_id":"se_화곡메인점_37.53605100360239_126.85507157643136","brand":"SEVEN_ELEVEN","servicesProvideds":["ALL_DAY"],"name":"화곡메인점","address":"서울특별시 강서구 곰달래로49길 112, 1층(화곡동)","telno":"","latitude":37.53605100360239,"longitude":126.85507157643136},{"brand_id":"se_화곡본동점_37.540908135_126.84848582","brand":"SEVEN_ELEVEN","servicesProvideds":["CAFE","ATM","ALL_DAY"],"name":"화곡본동점","address":"서울특별시 강서구 초록마을로14길 37(화곡동, 호산나빌)","telno":"","latitude":37.540908135,"longitude":126.84848582},{"brand_id":"se_화곡사랑점_37.53932813406237_126.84459669843228","brand":"SEVEN_ELEVEN","servicesProvideds":[],"name":"화곡사랑점","address":"서울특별시 강서구 초록마을로34길 85 지층 비01호","telno":"","latitude":37.53932813406237,"longitude":126.84459669843228},{"brand_id":"se_화곡스타점_37.544264918_126.83870685","brand":"SEVEN_ELEVEN","servicesProvideds":["CAFE","ALL_DAY"],"name":"화곡스타점","address":"서울특별시 강서구 화곡로31길 85","telno":"","latitude":37.544264918,"longitude":126.83870685},{"brand_id":"se_화곡신정초교점_37.533496223_126.85252861","brand":"SEVEN_ELEVEN","servicesProvideds":["FRIED","DELIVERY","ATM","ALL_DAY"],"name":"화곡신정초교점","address":"서울특별시 강서구 곰달래로31다길 1층 (화곡동)","telno":"","latitude":37.533496223,"longitude":126.85252861},{"brand_id":"se_화곡원룸점_37.529251883_126.84500226","brand":"SEVEN_ELEVEN","servicesProvideds":["CAFE","ALL_DAY"],"name":"화곡원룸점","address":"서울특별시 강서구 강서로7길 59 101호 (화곡동)","telno":"","latitude":37.529251883,"longitude":126.84500226},{"brand_id":"se_화곡월정점_37.535597241_126.84131876","brand":"SEVEN_ELEVEN","servicesProvideds":["ALL_DAY"],"name":"화곡월정점","address":"서울특별시 강서구 월정로30길 102 1층","telno":"","latitude":37.535597241,"longitude":126.84131876},{"brand_id":"se_화곡자하클래식점_37.548038382415314_126.8468916496581","brand":"SEVEN_ELEVEN","servicesProvideds":["CAFE","ALL_DAY"],"name":"화곡자하클래식점","address":"서울특별시 강서구 화곡로 262 1층 101호(화곡동, 자하클래식)","telno":"","latitude":37.548038382415314,"longitude":126.8468916496581},{"brand_id":"se_화곡제일점_37.54508074899775_126.8450826511475","brand":"SEVEN_ELEVEN","servicesProvideds":["CAFE","ALL_DAY"],"name":"화곡제일점","address":"서울특별시 강서구 초록마을로 3 1층(화곡동)","telno":"","latitude":37.54508074899775,"longitude":126.8450826511475},{"brand_id":"se_화곡중앙점_37.540328301_126.84058457","brand":"SEVEN_ELEVEN","servicesProvideds":["CAFE","ATM","ALL_DAY"],"name":"화곡중앙점","address":"서울특별시 강서구 강서로31길 10 1층(화곡동)","telno":"","latitude":37.540328301,"longitude":126.84058457},{"brand_id":"se_화곡푸른점_37.544872669_126.83513882","brand":"SEVEN_ELEVEN","servicesProvideds":["CAFE","DELIVERY","ATM"],"name":"화곡푸른점","address":"서울특별시 강서구 강서로45다길 69 1층 101호(화곡동, 한길빌딩)","telno":"","latitude":37.544872669,"longitude":126.83513882},{"brand_id":"se_화곡하늘점_37.546945246_126.85165568","brand":"SEVEN_ELEVEN","servicesProvideds":["CAFE","ALL_DAY"],"name":"화곡하늘점","address":"서울특별시 강서구 까치산로18라길 6","telno":"","latitude":37.546945246,"longitude":126.85165568},{"brand_id":"se_화곡행복점_37.537199589419_126.859386879702","brand":"SEVEN_ELEVEN","servicesProvideds":["FRIED","CAFE","ALL_DAY"],"name":"화곡행복점","address":"서울특별시 강서구 등촌로13길 90","telno":"","latitude":37.537199589419,"longitude":126.859386879702},{"brand_id":"se_화곡현대점_37.537264909_126.84881","brand":"SEVEN_ELEVEN","servicesProvideds":["FRIED","CAFE","DELIVERY","ATM","ALL_DAY"],"name":"화곡현대점","address":"서울특별시 강서구 초록마을로30길 7","telno":"","latitude":37.537264909,"longitude":126.84881},{"brand_id":"se_화곡화원점_37.534298367_126.8429417","brand":"SEVEN_ELEVEN","servicesProvideds":["DELIVERY","ATM","ALL_DAY"],"name":"화곡화원점","address":"서울특별시 강서구 가로공원로76가길 76 1층(화곡동)","telno":"","latitude":37.534298367,"longitude":126.8429417},{"brand_id":"se_S개화산역점_37.57263382_126.80642466","brand":"SEVEN_ELEVEN","servicesProvideds":[],"name":"S개화산역점","address":"서울 강서구 방화동 531-16 B1X27","telno":"","latitude":37.57263382,"longitude":126.80642466},{"brand_id":"se_S김포공항역점_37.584208214_126.82143893","brand":"SEVEN_ELEVEN","servicesProvideds":[],"name":"S김포공항역점","address":"서울 강서구 방화동 744B2.X27-29","telno":"","latitude":37.584208214,"longitude":126.82143893},{"brand_id":"se_S까치산역점_37.532309518_126.84610469","brand":"SEVEN_ELEVEN","servicesProvideds":[],"name":"S까치산역점","address":"서울특별시 강서구 강서로 1길 3 (화곡동 세븐일레븐)","telno":"","latitude":37.532309518,"longitude":126.84610469},{"brand_id":"se_S발산역점_37.559255823_126.83747484","brand":"SEVEN_ELEVEN","servicesProvideds":[],"name":"S발산역점","address":"서울특별시 강서구 공항대로 지하267 (가양동)","telno":"","latitude":37.559255823,"longitude":126.83747484},{"brand_id":"se_S방화역점_37.577004641_126.81263061","brand":"SEVEN_ELEVEN","servicesProvideds":[],"name":"S방화역점","address":"서울특별시 강서구 금낭화로 지하132 5호선 방화역 B1 X26-27","telno":"","latitude":37.577004641,"longitude":126.81263061},{"brand_id":"se_S송정역점_37.561513989_126.8121533","brand":"SEVEN_ELEVEN","servicesProvideds":[],"name":"S송정역점","address":"서울특별시 강서구 공항대로 지하33 (공항동)","telno":"","latitude":37.561513989,"longitude":126.8121533},{"brand_id":"se_S우장산역점_37.549166114_126.83592151","brand":"SEVEN_ELEVEN","servicesProvideds":[],"name":"S우장산역점","address":"서울특별시 강서구 강서로 지하262 (화곡동)","telno":"","latitude":37.549166114,"longitude":126.83592151},{"brand_id":"se_S화곡역점_37.540822543_126.83829787","brand":"SEVEN_ELEVEN","servicesProvideds":[],"name":"S화곡역점","address":"서울특별시 강서구 화곡로 148 (화곡동 세븐일레븐)","telno":"","latitude":37.540822543,"longitude":126.83829787}  
],
"comments": [
{
"id": 1,
"body": "some comment",
"postId": 1
},
{
"id": 2,
"body": "some comment",
"postId": 1
}
],
"profile": {
"name": "typicode"
}
}
